[
  {
    "id" : 1,
    "name" : "清华大学",
    "image" : "清华大学",
    "latitude" : 40.009645,
    "longitude" : 116.333374,
  },
  {
    "id" : 2,
    "name" : "北京大学",
    "image" : "北京大学",
    "latitude" : 39.998877,
    "longitude" : 116.316833,
  },
  {
    "id" : 3,
    "name" : "浙江大学",
    "image" : "浙江大学",
    "latitude" : 30.308304,
    "longitude" : 120.092406,
  },
  {
    "id" : 4,
    "name" : "上海交通大学",
    "image" : "上海交通大学",
    "latitude" : 31.205568,
    "longitude" : 121.439446,
  },
  {
    "id" : 5,
    "name" : "南京大学",
    "image" : "南京大学",
    "latitude" : 32.06143,
    "longitude" : 118.786007,
  },
  {
    "id" : 6,
    "name" : "复旦大学",
    "image" : "复旦大学",
    "latitude" : 31.301911,
    "longitude" : 121.510771,
  },
  {
    "id" : 7,
    "name" : "中国科学技术大学",
    "image" : "中国科学技术大学",
    "latitude" : 31.842919,
    "longitude" : 117.276137,
  },
  {
    "id" : 8,
    "name" : "华中科技大学",
    "image" : "华中科技大学",
    "latitude" : 30.518659,
    "longitude" : 114.419825,
  },
  {
    "id" : 9,
    "name" : "武汉大学",
    "image" : "武汉大学",
    "latitude" : 30.543803,
    "longitude" : 114.372921,
  },
  {
    "id" : 10,
    "name" : "西安交通大学",
    "image" : "西安交通大学",
    "latitude" : 34.252359,
    "longitude" : 108.990166,
  },
  {
    "id" : 11,
    "name" : "哈尔滨工业大学",
    "image" : "哈尔滨工业大学",
    "latitude" : 45.749057,
    "longitude" : 126.639003,
  },
  {
    "id" : 12,
    "name" : "中山大学",
    "image" : "中山大学",
    "latitude" : 23.102915,
    "longitude" : 113.304864,
  },
  {
    "id" : 13,
    "name" : "北京师范大学",
    "image" : "北京师范大学",
    "latitude" : 39.967345,
    "longitude" : 116.372141,
  },
  {
    "id" : 14,
    "name" : "四川大学",
    "image" : "四川大学",
    "latitude" : 30.637031,
    "longitude" : 104.090633,
  },
  {
    "id" : 15,
    "name" : "北京航空航天大学",
    "image" : "北京航空航天大学",
    "latitude" : 39.98766,
    "longitude" : 116.353792,
  },
  {
    "id" : 16,
    "name" : "同济大学",
    "image" : "同济大学",
    "latitude" : 31.288205,
    "longitude" : 121.513046,
  },
  {
    "id" : 17,
    "name" : "东南大学",
    "image" : "东南大学",
    "latitude" : 32.059639,
    "longitude" : 118.800095,
  },
  {
    "id" : 18,
    "name" : "中国人民大学",
    "image" : "中国人民大学",
    "latitude" : 39.976546,
    "longitude" : 116.319769,
  },
  {
    "id" : 19,
    "name" : "北京理工大学",
    "image" : "北京理工大学",
    "latitude" : 39.966659,
    "longitude" : 116.322726,
  },
  {
    "id" : 20,
    "name" : "南开大学",
    "image" : "南开大学",
    "latitude" : 39.109442,
    "longitude" : 117.17546,
  },
  {
    "id" : 21,
    "name" : "山东大学",
    "image" : "山东大学",
    "latitude" : 36.677563,
    "longitude" : 117.062593,
  },
  {
    "id" : 22,
    "name" : "天津大学",
    "image" : "天津大学",
    "latitude" : 39.116347,
    "longitude" : 117.169563,
  },
  {
    "id" : 23,
    "name" : "中南大学",
    "image" : "中南大学",
    "latitude" : 28.1772,
    "longitude" : 112.934197,
  },
  {
    "id" : 24,
    "name" : "吉林大学",
    "image" : "吉林大学",
    "latitude" : 43.916462,
    "longitude" : 125.272849,
  },
  {
    "id" : 25,
    "name" : "西北工业大学",
    "image" : "西北工业大学",
    "latitude" : 34.246786,
    "longitude" : 108.917057,
  },
  {
    "id" : 26,
    "name" : "厦门大学",
    "image" : "厦门大学",
    "latitude" : 24.443141,
    "longitude" : 118.110648,
  },
  {
    "id" : 27,
    "name" : "华南理工大学",
    "image" : "华南理工大学",
    "latitude" : 23.178973,
    "longitude" : 113.438776,
  },
  {
    "id" : 28,
    "name" : "大连理工大学",
    "image" : "大连理工大学",
    "latitude" : 38.888106,
    "longitude" : 121.531261,
  },
  {
    "id" : 29,
    "name" : "华东师范大学",
    "image" : "华东师范大学",
    "latitude" : 31.19557,
    "longitude" : 121.646469,
  },
  {
    "id" : 30,
    "name" : "中国农业大学",
    "image" : "中国农业大学",
    "latitude" : 40.033156,
    "longitude" : 116.289259,
  },
  {
    "id" : 31,
    "name" : "电子科技大学",
    "image" : "电子科技大学",
    "latitude" : 30.756035,
    "longitude" : 103.937404,
  },
  {
    "id" : 32,
    "name" : "湖南大学",
    "image" : "湖南大学",
    "latitude" : 28.186051,
    "longitude" : 112.950693,
  },
  {
    "id" : 33,
    "name" : "北京科技大学",
    "image" : "北京科技大学",
    "latitude" : 39.996165,
    "longitude" : 116.365942,
  },
  {
    "id" : 34,
    "name" : "重庆大学",
    "image" : "重庆大学",
    "latitude" : 29.571111,
    "longitude" : 106.475186,
  },
  {
    "id" : 35,
    "name" : "南京航空航天大学",
    "image" : "南京航空航天大学",
    "latitude" : 32.041196,
    "longitude" : 118.826737,
  },
  {
    "id" : 36,
    "name" : "东北大学",
    "image" : "东北大学",
    "latitude" : 41.770971,
    "longitude" : 123.424477,
  },
]
